cities.csv,City,Country,Date,Temperature (F),Humidity (%),Cloudiness (%),Wind Speed (mph),Latitude,Longitude
0,ponta do sol,BR,1533895947,59.22,91,32,4.94,-20.63,-46
1,norman wells,CA,1533891600,44.6,100,90,11.41,65.28,-126.83
2,alotau,,,,,,,,
3,guerrero negro,MX,1533896058,74.61,94,0,2.59,27.97,-114.04
4,muravlenko,RU,1533896190,60.03,88,12,4.5,63.79,74.5
5,barrow,AR,1533895944,32.22,85,12,2.71,-38.31,-60.23
6,ushuaia,AR,1533891600,39.2,64,75,10.29,-54.81,-68.31
7,husavik,CA,1533895959,65.34,81,8,5.61,50.56,-96.99
8,anadyr,RU,1533891600,41,80,75,6.71,64.73,177.51
9,saleaula,,,,,,,,
10,port lincoln,AU,1533896001,52.11,100,56,11.32,-34.72,135.86
11,vaini,IN,1533895965,71.28,100,88,8.97,15.34,74.49
12,grand gaube,MU,1533891600,78.8,61,40,10.29,-20.01,57.66
13,hermanus,ZA,1533896146,49.32,93,92,1.92,-34.42,19.24
14,saskylakh,RU,1533896190,67.32,81,64,4.38,71.97,114.09
15,san patricio,PY,1533896191,39.78,88,0,2.37,-26.98,-56.83
16,longyearbyen,NO,1533894600,42.8,93,90,12.75,78.22,15.63
17,hilo,US,1533893160,67.19,83,90,6.93,19.71,-155.08
18,albany,US,1533894840,62.56,88,20,3.36,42.65,-73.75
19,malatya,,,,,,,,
20,mataura,NZ,1533895948,33.12,82,0,3.49,-46.19,168.86
21,constantine,DZ,1533895200,89.6,35,0,3.36,36.36,6.61
22,avarua,CK,1533895200,66.2,82,20,5.82,-21.21,-159.78
23,sorvag,,,,,,,,
24,mar del plata,AR,1533895994,37.26,98,56,4.61,-46.43,-67.52
25,butaritari,KI,1533895959,84.06,100,8,4.72,3.07,172.79
26,nikolskoye,RU,1533893400,87.8,38,0,13.42,59.7,30.79
27,busselton,AU,1533895734,57.06,100,92,15.79,-33.64,115.35
28,saint-philippe,CA,1533894900,60.69,77,1,4.7,45.36,-73.48
29,dalvik,SE,1533894600,68,72,40,24.16,57.79,14.13
30,arraial do cabo,BR,1533891600,71.6,88,75,11.41,-22.97,-42.02
31,wanlaweyn,SO,1533896192,80.28,69,92,11.21,2.62,44.89
32,san policarpo,PH,1533896193,83.88,89,92,14.23,12.18,125.51
33,hamilton,CA,1533894120,64.15,93,1,3.36,43.26,-79.87
34,adrar,DZ,1533891600,93.2,38,75,9.17,27.87,-0.29
35,severo-kurilsk,RU,1533895954,55.44,91,32,4.5,50.68,156.12
36,tezu,IN,1533896193,72.72,90,76,1.03,27.93,96.16
37,taolanaro,,,,,,,,
38,bowen,AU,1533891600,62.6,77,0,5.82,-20.01,148.25
39,kahului,US,1533894180,74.17,100,90,12.75,20.89,-156.47
40,san jose,PH,1533896123,71.91,100,92,2.71,15.79,120.99
41,jamestown,AU,1533895964,56.79,66,80,17.13,-33.21,138.6
42,punta arenas,CL,1533891600,30.2,100,75,5.82,-53.16,-70.91
43,dingle,PH,1533896054,76.77,93,92,9.64,11,122.67
44,nouadhibou,MR,1533895200,75.2,69,0,14.99,20.93,-17.03
45,beringovskiy,RU,1533896010,46.08,100,64,13.56,63.05,179.32
46,yellowknife,CA,1533891600,59,77,75,13.87,62.45,-114.38
47,haines junction,CA,1533896194,43.02,100,100,1.92,60.75,-137.51
48,rikitea,PF,1533895943,74.16,100,44,15.79,-23.12,-134.97
49,troitsko-pechorsk,RU,1533896195,62.37,78,92,10.65,62.71,56.19
50,jibuti,,,,,,,,
51,cherskiy,RU,1533895960,51.84,56,0,5.73,68.75,161.3
52,aksu,KZ,1533893400,93.2,32,75,13.42,52.04,76.93
53,cape town,ZA,1533891600,59,62,20,9.17,-33.93,18.42
54,new norfolk,AU,1533895200,48.2,70,75,9.17,-42.78,147.06
55,murmashi,RU,1533893400,62.6,63,75,8.95,68.82,32.82
56,chastyye,RU,1533896195,67.86,61,32,8.86,57.29,54.97
57,waipawa,NZ,1533896196,42.48,92,0,3.6,-39.94,176.59
58,saint george,GR,1533894600,86,37,40,6.93,39.45,22.34
59,chokurdakh,RU,1533895946,53.28,66,0,15.68,70.62,147.9
60,aykhal,RU,1533895964,58.95,63,76,5.73,65.95,111.51
61,barentsburg,,,,,,,,
62,east london,ZA,1533894240,53.6,81,90,38.03,-33.02,27.91
63,kenai,US,1533894960,48.15,71,1,5.82,60.55,-151.26
64,atyrau,KZ,1533893400,75.2,33,40,17.9,47.1,51.92
65,tessalit,ML,1533895998,90.72,52,12,6.17,20.2,1.01
66,talnakh,RU,1533895943,46.71,96,92,10.98,69.49,88.39
67,samusu,,,,,,,,
68,port alfred,ZA,1533895942,55.89,100,92,7.07,-33.59,26.89
69,camacha,PT,1533893400,71.6,56,75,13.87,33.08,-16.33
70,cabo san lucas,MX,1533895791,81.81,100,8,10.87,22.89,-109.91
71,bluff,AU,1533895955,62.91,50,0,8.08,-23.58,149.07
72,villamontes,BO,1533896197,39.42,80,0,3.38,-21.26,-63.47
73,murray bridge,AU,1533896197,54.72,96,92,17.02,-35.12,139.28
74,hithadhoo,MV,1533895952,82.17,100,0,3.71,-0.6,73.08
75,iqaluit,CA,1533891600,41,93,90,17.22,63.75,-68.52
76,warri,NG,1533896150,76.86,100,76,8.75,5.52,5.75
77,wasilla,US,1533894960,55.4,71,90,1.92,61.58,-149.44
78,kaitangata,NZ,1533895949,36.36,70,0,2.82,-46.28,169.85
79,atuona,PF,1533895950,79.02,100,92,15.9,-9.8,-139.03
80,puurmani,EE,1533894600,86,33,0,18.34,58.57,26.29
81,madarounfa,NE,1533895200,84.2,74,75,11.41,13.3,7.16
82,kattivakkam,IN,1533893400,93.2,52,75,2.24,13.22,80.32
83,lolua,,,,,,,,
84,vostok,RU,1533896198,70.11,74,80,0.69,46.45,135.83
85,parvatipuram,IN,1533896199,86.49,73,68,5.39,18.78,83.43
86,ayagoz,KZ,1533896199,90.9,20,0,6.96,47.96,80.43
87,dzhusaly,,,,,,,,
88,constitucion,MX,1533896199,56.79,79,48,4.05,23.99,-104.67
89,praia da vitoria,PT,1533895200,75.2,73,20,9.42,38.73,-27.07
90,bukama,CD,1533896199,90.99,21,0,8.75,-9.2,25.85
91,mahadday weyne,,,,,,,,
92,waldkirchen,AT,1533896200,66.69,78,92,4.72,48.73,13.6
93,touros,BR,1533896200,74.07,96,80,9.31,-5.2,-35.46
94,hofn,IS,1533891600,51.8,81,40,3.36,64.25,-15.21
95,bertinoro,IT,1533894900,85.28,58,0,5.82,44.15,12.13
96,kinkala,CG,1533891600,78.8,65,8,6.93,-4.35,14.75
97,margate,AU,1533895200,48.2,70,75,9.17,-43.03,147.26
98,banyo,CM,1533896201,74.79,91,24,3.94,6.75,11.81
99,bambous virieux,MU,1533891600,78.8,61,40,10.29,-20.34,57.76
100,pangoa,PE,1533896201,60.84,95,8,2.26,-12.12,-73
101,vyyezdnoye,RU,1533896201,72.63,71,0,7.96,55.38,43.79
102,tsihombe,,,,,,,,
103,mastic beach,US,1533894960,67.3,100,1,7.18,40.77,-72.85
104,isangel,VU,1533895972,73.71,100,88,9.42,-19.55,169.27
105,riverton,US,1533894900,65.03,34,1,3.36,43.02,-108.38
106,ustye,RU,1533896202,77.76,72,0,14,58.76,27.79
107,makakilo city,US,1533891420,80.6,78,75,8.05,21.35,-158.09
108,illoqqortoormiut,,,,,,,,
109,goderich,CA,1533896203,60.84,86,0,6.51,43.74,-81.71
110,santa isabel do rio negro,BR,1533896203,72.63,96,8,4.83,-0.41,-65.02
111,amderma,,,,,,,,
112,nizhneyansk,,,,,,,,
113,northam,GB,1533894600,60.73,72,40,14.99,51.04,-4.21
114,kapaa,US,1533891660,78.33,100,90,16.11,22.08,-159.32
115,meyungs,,,,,,,,
116,naze,NG,1533891600,78.8,88,75,4.7,5.43,7.07
117,clocolan,ZA,1533891600,48.2,31,20,18.34,-28.91,27.57
118,marau,BR,1533896204,41.31,100,88,12.44,-28.45,-52.2
119,kurchum,KZ,1533896204,89.28,35,0,3.83,48.57,83.65
120,coari,BR,1533896204,73.89,98,12,3.04,-4.09,-63.14
121,oranjemund,ZA,1533896204,58.32,95,76,12.21,-28.55,16.43
122,porto walter,BR,1533896204,71.64,92,8,3.38,-8.27,-72.74
123,craig,US,1533893700,58.96,58,1,2.59,40.52,-107.55
124,charters towers,AU,1533896205,62.28,72,0,7.4,-20.07,146.27
125,sao filipe,CV,1533896205,76.86,99,24,7.4,14.9,-24.5
126,inhambane,MZ,1533891600,80.6,61,40,16.11,-23.87,35.38
127,alindao,CF,1533896205,88.74,65,0,6.17,5.04,21.21
128,bredasdorp,ZA,1533891600,60.8,59,76,9.17,-34.53,20.04
129,batagay,RU,1533896206,67.41,64,0,4.05,67.65,134.64
130,port blair,IN,1533896206,78.57,100,92,22.39,11.67,92.75
131,zhigansk,RU,1533896206,68.94,51,36,3.38,66.77,123.37
132,mulchen,CL,1533896206,26.46,70,0,2.59,-37.72,-72.23
133,ajdabiya,LY,1533896206,91.26,43,0,9.98,30.75,20.22
134,victoria,BN,1533893400,86,79,75,4.7,5.28,115.24
135,bela,PK,1533896207,97.56,43,8,5.5,26.23,66.31
136,marco,BR,1533895908,75.42,89,0,10.76,-3.12,-40.15
137,vila franca do campo,PT,1533895200,71.6,78,75,5.82,37.72,-25.43
138,grand river south east,,,,,,,,
139,kolokani,ML,1533896207,71.91,98,92,10.76,13.58,-8.03
140,hashtrud,IR,1533895963,88.83,28,0,2.71,37.48,47.05
141,xiamen,CN,1533891600,87.8,66,20,11.18,24.46,118.07
142,mikuni,JP,1533891600,80.6,78,75,4.7,36.22,136.15
143,belushya guba,,,,,,,,
144,mahebourg,MU,1533891600,78.8,61,40,10.29,-20.41,57.7
145,hasaki,JP,1533893400,85.32,70,75,8.05,35.73,140.83
146,praxedis guerrero,MX,1533894660,69.8,73,75,12.75,31.37,-106.02
147,bud,NO,1533894600,56.01,93,75,3.36,62.91,6.91
148,bathsheba,BB,1533891600,80.6,83,40,10.29,13.22,-59.52
149,lompoc,US,1533893880,58.24,93,20,4.16,34.64,-120.46
150,poso,ID,1533896208,80.55,100,48,2.93,-1.4,120.75
151,hobart,AU,1533895200,48.2,70,75,9.17,-42.88,147.33
152,thompson,CA,1533891600,64.4,82,90,4.7,55.74,-97.86
153,castro,CL,1533895966,43.92,99,88,3.38,-42.48,-73.76
154,nanortalik,GL,1533896008,43.38,95,12,1.48,60.14,-45.24
155,tigil,RU,1533896209,51.39,97,92,4.61,57.8,158.67
156,tagana-an,PH,1533896209,84.96,84,8,16.35,9.7,125.59
157,lagoa,PT,1533895200,77,41,0,5.82,37.14,-8.45
158,caucasia,CO,1533896209,72.27,100,68,3.15,7.98,-75.2
159,zhuhai,CN,1533891600,86,48,40,2.24,40.71,112.04
160,trapani,IT,1533894900,85.82,58,0,9.17,38.02,12.54
161,esperance,TT,1533891600,75.2,94,20,4.61,10.24,-61.45
162,boshnyakovo,RU,1533896210,63.18,80,24,1.14,49.65,142.17
163,dikson,RU,1533895961,43.29,100,92,16.35,73.51,80.55
164,morros,BR,1533895200,77,88,0,8.05,-2.87,-44.04
165,gilgil,,,,,,,,
166,shimoda,JP,1533895947,82.35,91,76,17.25,34.7,138.93
167,opelousas,US,1533893700,74.82,100,1,5.95,30.53,-92.08
168,gilgit,PK,1533896211,68.85,26,32,0.36,35.92,74.31
169,goundam,ML,1533896211,83.16,89,8,6.73,16.42,-3.66
170,te anau,NZ,1533895990,27.9,81,0,2.37,-45.41,167.72
171,upernavik,GL,1533895971,39.06,96,36,4.5,72.79,-56.15
172,kieta,PG,1533895996,76.59,100,88,3.38,-6.22,155.63
173,montes altos,BR,1533891600,73.4,83,20,4.7,-5.83,-47.07
174,manuk mangkaw,PH,1533896211,82.89,100,24,9.19,4.8,119.85
175,pangnirtung,CA,1533896038,45.72,89,92,21.16,66.15,-65.72
176,puerto ayora,EC,1533895662,69.66,100,24,12.77,-0.74,-90.35
177,cayenne,GF,1533893400,73.4,100,20,5.17,4.94,-52.33
178,moron,VE,1533891600,71.6,94,20,2.26,10.49,-68.2
179,padang,ID,1533896212,82.44,100,0,7.52,-0.92,100.36
180,srednekolymsk,RU,1533895996,56.52,59,0,5.5,67.46,153.71
181,qaanaaq,GL,1533895954,35.01,100,92,3.15,77.48,-69.36
182,georgetown,GY,1533895884,74.61,91,36,3.71,6.8,-58.16
183,kuteynykove,UA,1533896212,79.02,34,0,11.32,47.81,38.29
184,saldanha,PT,1533895955,65.16,55,0,10.42,41.42,-6.55
185,corpus christi,US,1533894960,79.68,83,1,12.75,27.8,-97.4
186,namibe,AO,1533896047,65.7,100,0,3.49,-15.19,12.15
187,comandau,RO,1533896213,70.92,47,0,2.71,45.77,26.27
188,aklavik,CA,1533891600,39.2,80,90,3.36,68.22,-135.01
189,caborca,MX,1533896213,68.67,90,76,2.37,30.58,-111.1
190,north bend,US,1533894960,57.2,93,90,1.92,43.41,-124.22
191,vila velha,BR,1533891600,75.2,94,75,6.93,-3.71,-38.6
192,iranshahr,IR,1533891600,104,33,8,9.17,27.21,60.69
193,tuktoyaktuk,CA,1533895955,40.23,100,68,18.7,69.44,-133.03
194,hambantota,LK,1533896058,84.06,84,44,19.37,6.12,81.12
195,mentok,,,,,,,,
196,praia,BR,1533891600,59.83,93,0,3.36,-20.25,-43.81
197,tiangua,BR,1533896214,68.67,95,76,3.71,-3.73,-40.99
198,singaraja,ID,1533893400,80.6,78,75,17.22,-8.11,115.08
199,port hedland,AU,1533895200,77,29,0,12.75,-20.31,118.58
200,buraydah,SA,1533891600,107.6,20,0,9.17,26.33,43.97
201,mount gambier,AU,1533895981,46.98,100,92,5.73,-37.83,140.78
202,benjamin constant,BR,1533891600,71.6,100,75,2.24,-4.38,-70.03
203,riyadh,SA,1533891600,105.8,9,0,10.29,24.63,46.72
204,barawe,,,,,,,,
205,narsaq,GL,1533894600,46.4,100,75,2.71,60.91,-46.05
206,wana,PK,1533896215,84.51,59,8,2.93,32.31,69.59
207,ostrovskoye,RU,1533896215,76.86,70,0,11.65,57.81,42.24
208,khatanga,RU,1533895956,64.44,69,0,15.01,71.98,102.47
209,havre-saint-pierre,CA,1533892620,59,100,90,4.7,50.23,-63.6
210,tiznit,MA,1533896215,70.38,97,20,2.15,29.7,-9.73
211,kavieng,PG,1533896004,83.52,100,56,5.28,-2.57,150.8
212,tiarei,PF,1533895200,77,88,75,8.05,-17.53,-149.33
213,zaysan,KZ,1533896216,81.18,34,0,6.51,47.47,84.87
214,egvekinot,RU,1533896021,36.36,75,32,4.72,66.32,-179.17
215,miri,NG,1533896216,73.35,100,32,3.94,10.31,9.75
216,homer,US,1533894780,47.26,87,1,2.71,59.64,-151.54
217,lavrentiya,RU,1533895965,46.62,98,76,4.27,65.58,-170.99
218,bratsk,RU,1533893400,77,38,8,8.95,56.15,101.63
219,katsuura,JP,1533891600,86,66,75,3.36,33.93,134.5
220,nova olimpia,BR,1533896217,57.24,82,8,3.38,-14.8,-57.29
221,kazalinsk,,,,,,,,
222,berlevag,NO,1533894600,50.61,100,75,6.93,70.86,29.09
223,pallasovka,RU,1533896217,72.9,36,0,14.12,50.04,46.89
224,saint anthony,US,1533891360,54.72,62,1,4.7,43.97,-111.68
225,xinzhi,TW,1533894660,85.35,84,75,12.75,22.54,120.62
226,salalah,OM,1533891000,78.8,88,90,6.93,17.01,54.1
227,navahrudak,BY,1533896217,77.94,54,0,17.81,53.59,25.82
228,kodiak,US,1533894780,66.2,100,1,3.38,39.95,-94.76
229,gamba,CN,1533896218,46.71,82,24,3.15,28.28,88.52
230,yumen,CN,1533895982,86.58,31,8,6.17,40.29,97.04
231,lata,IN,1533896219,64.35,100,92,1.92,30.78,78.62
232,vredefort,ZA,1533896219,51.21,67,92,10.98,-27,27.37
233,sentyabrskiy,,,,,,,,
234,taganak,PH,1533891600,87.8,74,75,6.93,6.08,118.3
235,kruisfontein,ZA,1533896054,53.28,100,92,10.09,-34,24.73
236,rio grande,BR,1533895989,48.24,100,80,24.74,-32.03,-52.1
237,olinda,EC,1533891600,69.8,83,75,10.29,-2.03,-79.75
238,ust-kulom,RU,1533896219,68.76,66,64,11.99,61.69,53.69
239,caravelas,BR,1533896027,75.69,100,36,21.72,-17.73,-39.27
240,torbay,CA,1533891600,61.75,100,90,8.05,47.66,-52.73
241,chuy,UY,1533895959,49.86,88,92,22.84,-33.69,-53.46
242,kargala,RU,1533896220,81.99,52,44,8.63,56.62,83.96
243,kasane,BW,1533891600,80.6,36,0,9.17,-17.8,25.16
244,mana,RS,1533895200,79.52,51,0,10.29,43.52,20.24
245,vanimo,PG,1533896220,84.69,100,20,7.63,-2.67,141.3
246,oranjestad,AW,1533891600,80.6,78,20,18.34,12.52,-70.03
247,necochea,AR,1533895978,41.4,98,64,7.18,-38.55,-58.74
248,kysyl-syr,RU,1533896220,52.92,98,92,5.5,63.9,122.77
249,pryozerne,UA,1533893400,79.7,54,40,11.18,49.42,24.47
250,kroya,ID,1533896221,86.76,49,100,0.92,-6.5,108.06
251,sayan,YE,1533896221,97.83,36,0,4.16,15.88,43.46
252,leningradskiy,RU,1533895949,34.02,100,76,9.31,69.38,178.42
253,kalamazoo,US,1533894600,69.78,94,90,10.29,42.29,-85.59
254,isiro,CD,1533896222,75.69,85,76,3.15,2.77,27.62
255,bosaso,SO,1533896222,93.06,73,0,10.76,11.28,49.18
256,luderitz,NA,1533896054,54.99,77,0,14.56,-26.65,15.16
257,ojinaga,US,1533896222,66.42,78,48,3.04,29.56,-104.41
258,guarapari,BR,1533891600,71.6,83,0,16.11,-20.67,-40.5
259,beauvais,FR,1533895200,66.92,63,20,12.75,49.44,2.09
260,ryotsu,JP,1533891600,80.6,83,75,8.05,38.08,138.43
261,portland,US,1533894960,65.46,73,1,2.04,45.52,-122.67
262,carutapera,BR,1533895967,75.69,94,0,6.4,-1.2,-46.02
263,port elizabeth,US,1533894900,71.37,94,1,2.71,39.31,-74.98
264,faya,SA,1533891600,87.8,23,0,16.11,18.39,42.45
265,san miguel,AR,1533891600,42.8,70,90,6.93,-34.54,-58.72
266,half moon bay,US,1533894000,57.96,100,90,6.93,37.46,-122.43
267,christchurch,NZ,1533895200,41,93,0,3.36,-43.53,172.64
268,tasiilaq,GL,1533894600,48.2,57,75,13.87,65.61,-37.64
269,hualmay,PE,1533896225,46.98,97,24,1.92,-11.1,-77.61
270,tumannyy,,,,,,,,
271,fortuna,ES,1533895200,87.15,52,40,11.41,38.18,-1.13
272,pingliang,CN,1533896225,80.19,57,24,7.74,35.54,106.68
273,pevek,RU,1533896010,37.89,100,32,12.21,69.7,170.27
274,vysokogornyy,RU,1533896226,66.96,46,80,2.71,50.1,139.13
275,yantarnyy,RU,1533893400,84.2,51,0,11.18,54.87,19.94
276,ziro,IN,1533891600,86,84,75,4.7,27.54,93.82
277,songea,TZ,1533895969,78.12,34,0,5.61,-10.68,35.65
278,sao joao da barra,BR,1533896020,75.06,95,68,9.64,-21.64,-41.05
279,chimore,BO,1533896226,54.09,85,0,2.37,-16.98,-65.13
280,itarema,BR,1533896041,75.42,89,0,10.76,-2.92,-39.92
281,vila,IT,1533894900,79.25,65,20,5.82,45.18,8.4
282,nizhnevartovsk,RU,1533893400,55.4,93,90,8.95,60.93,76.58
283,cockburn town,TC,1533896010,81.36,100,0,11.99,21.46,-71.14
284,dong hoi,VN,1533896227,86.31,89,48,15.68,17.48,106.6
285,bonfim,BR,1533891600,60.8,93,0,3.36,-20.33,-44.24
286,urumqi,,,,,,,,
287,barcelos,PT,1533895200,69.8,64,0,5.82,41.53,-8.62
288,pangkalanbuun,ID,1533896228,84.06,75,24,8.86,-2.68,111.62
289,brae,GB,1533894600,57.2,67,20,11.41,60.4,-1.35
290,tiksi,RU,1533895943,63.81,68,0,7.18,71.64,128.87
291,ambanja,MG,1533891600,86,42,20,4.7,-13.68,48.45
292,windsor,US,1533893880,68.97,94,40,5.82,42.3,-83.03
293,muscat,OM,1533891000,89.6,70,56,11.41,23.6,58.55
294,broken hill,AU,1533896229,64.08,33,0,19.04,-31.97,141.45
295,bargal,,,,,,,,
296,severnoye,RU,1533896229,67.41,48,0,14.23,54.09,52.54
297,palmer,US,1533894960,55.4,71,90,1.92,61.6,-149.11
298,chara,GR,1533894600,86,37,40,6.93,39.42,22.43
299,paamiut,GL,1533896049,42.21,95,0,2.37,61.99,-49.67
300,port hueneme,US,1533895080,70.21,88,1,2.26,34.15,-119.2
301,ambon,FR,1533895200,68,60,0,11.41,47.55,-2.56
302,lebu,ET,1533891600,62.6,72,75,6.93,8.96,38.73
303,caraballeda,VE,1533891600,75.2,88,20,1.12,10.61,-66.85
304,kuching,MY,1533893400,82.4,78,75,1.25,1.56,110.34
305,palana,RU,1533896230,52.92,93,48,1.59,59.08,159.95
306,taltal,CL,1533896231,46.26,91,0,2.59,-25.41,-70.49
307,prince rupert,CA,1533895380,57.2,93,90,2.15,54.32,-130.32
308,provideniya,RU,1533895951,47.25,100,92,6.17,64.42,-173.23
309,tual,ID,1533896231,78.48,100,80,5.95,-5.67,132.75
310,chapais,CA,1533891600,48.2,93,20,4.7,49.78,-74.86
311,kailua,US,1533891420,80.6,83,90,12.75,21.39,-157.74
312,dolbeau,,,,,,,,
313,praya,ID,1533895200,78.8,78,40,13.87,-8.71,116.27
314,wajima,JP,1533891600,77,94,40,3.36,37.4,136.9
315,poum,MK,1533893400,75.2,69,20,4.7,41.28,20.71
316,dekar,BW,1533896232,59.94,26,0,17.81,-21.53,21.93
317,luxor,EG,1533891600,100.4,35,0,4.7,25.7,32.65
318,porto novo,BR,1533895200,55.4,71,0,11.41,-23.68,-45.44
319,pudozh,RU,1533896232,78.39,69,0,14.56,61.81,36.54
320,smolenka,PL,1533896233,78.66,55,8,20.38,54.15,22.76
321,makasar,ID,1533895200,87.06,70,20,8.05,-6.28,106.88
322,sterling,US,1533894960,69.8,94,40,4.5,39,-77.4
323,lisakovsk,KZ,1533896233,65.16,65,76,17.92,52.55,62.49
324,falealupo,,,,,,,,
325,quatre cocos,MU,1533891600,78.8,61,40,10.29,-20.21,57.76
326,ribeira grande,PT,1533895200,75.2,83,20,6.93,38.52,-28.7
327,omsukchan,RU,1533896234,54.99,58,80,1.36,62.53,155.8
328,tomatlan,MX,1533896234,71.55,90,0,1.92,19.93,-105.25
329,takoradi,GH,1533895200,80.6,83,40,13.87,4.89,-1.75
330,lufilufi,WS,1533896234,79.92,100,0,6.51,-13.87,-171.6
331,santa margherita ligure,IT,1533894900,84.2,62,40,6.93,44.33,9.21
332,san cristobal,EC,1533891600,48.2,93,90,20.8,-0.39,-78.55
333,manavalakurichi,IN,1533895200,86,70,75,11.41,8.13,77.3
334,ambovombe,MG,1533896235,76.14,73,0,21.05,-25.18,46.09
335,ozgon,,,,,,,,
336,luangwa,MZ,1533896235,80.19,56,0,7.63,-15.62,30.4
337,laguna,MX,1533895968,78.12,86,12,2.04,27.52,-110.01
338,fayaoue,NC,1533896235,73.17,98,44,8.63,-20.65,166.53
339,vestmannaeyjar,IS,1533895200,50,76,90,5.82,63.44,-20.27
340,lashio,MM,1533896236,78.03,84,64,2.59,22.93,97.75
341,colares,PT,1533895200,73.44,60,20,11.41,38.8,-9.45
342,najran,SA,1533891600,100.4,16,5,6.93,17.54,44.22
343,malakal,,,,,,,,
344,whittlesea,AU,1533895320,59.88,59,32,18.34,-37.51,145.12
345,karratha,AU,1533896236,74.97,14,0,17.13,-20.74,116.85
346,marrakesh,MA,1533895200,80.6,54,0,4.7,31.63,-7.99
347,carballo,ES,1533895200,66.2,68,20,6.93,43.21,-8.69
348,airai,TL,1533896029,71.01,83,80,2.15,-8.93,125.41
349,port-gentil,GA,1533891600,77,78,75,12.75,-0.72,8.78
350,riohacha,CO,1533896237,81.09,88,0,14,11.54,-72.91
351,berdavan,AM,1533893400,78.8,61,40,14.99,41.21,45
352,clyde river,CA,1533891840,37.4,100,90,9.17,70.47,-68.59
353,jasper,US,1533894960,72.23,100,68,4.61,33.83,-87.28
354,aswan,EG,1533891600,104,20,0,4.7,24.09,32.9
355,pisco,PE,1533891600,60.8,87,90,2.24,-13.71,-76.2
356,plettenberg bay,ZA,1533896053,53.28,100,92,8.3,-34.05,23.37
357,axim,GH,1533891600,80.6,83,40,11.41,4.87,-2.24
358,codrington,AU,1533896047,51.3,87,20,3.94,-28.95,153.24
359,arlit,NE,1533896064,77.58,98,36,7.85,18.74,7.39
360,paris,FR,1533895200,67.77,48,75,11.41,48.86,2.35
361,yurgamysh,RU,1533896239,59.94,73,80,19.48,55.37,64.47
362,umzimvubu,,,,,,,,
363,cabra,ES,1533895200,85.06,20,0,9.17,37.47,-4.43
364,mayumba,GA,1533896239,72.09,90,48,5.39,-3.44,10.65
365,wynyard,CA,1533896239,66.6,55,0,9.08,51.77,-104.18
366,satitoa,,,,,,,,
367,sysert,RU,1533893400,64.4,52,0,15.66,56.5,60.81
368,attawapiskat,,,,,,,,
369,roccastrada,IT,1533894900,87.8,58,20,8.05,43.01,11.17
370,coquimbo,CL,1533891600,50,93,90,4.7,-29.95,-71.34
371,bethel,US,1533894780,46.4,93,1,5.82,60.79,-161.76
372,viligili,,,,,,,,
373,chagda,,,,,,,,
374,batagay-alyta,RU,1533896240,63.18,44,44,4.72,67.8,130.41
375,afmadu,,,,,,,,
376,sitka,US,1533896240,66.42,87,0,2.59,37.17,-99.65
377,sioux lookout,CA,1533891600,63.28,77,40,4.7,50.1,-91.92
378,maridi,,,,,,,,
379,voh,NC,1533896241,71.46,97,12,9.75,-20.95,164.69
380,mullaitivu,,,,,,,,
381,chupei,,,,,,,,
382,katobu,ID,1533896241,79.2,100,44,4.94,-4.94,122.53
383,liaozhong,CN,1533893400,89.6,52,20,8.95,41.51,122.73
384,kloulklubed,PW,1533891240,82.4,78,90,8.05,7.04,134.26
385,krasnoyarsk-66,,,,,,,,
386,linqiong,CN,1533891600,80.6,88,40,4.47,30.42,103.46
387,sokolo,ML,1533896242,76.23,88,80,7.96,14.74,-6.12
388,marawi,PH,1533896242,77.85,68,24,4.5,8,124.29
389,puerto madryn,AR,1533896002,47.16,89,88,22.84,-42.77,-65.04
390,puli,TW,1533893400,87.8,62,40,8.05,23.97,120.97
391,san nicola,IT,1533894600,90.45,44,20,8.05,40.61,8.99
392,pauini,BR,1533896243,70.92,99,92,4.27,-7.71,-67
393,yerbogachen,RU,1533896243,67.14,52,32,7.63,61.28,108.01
394,shelburne,CA,1533896160,57.99,100,1,8.63,44.08,-80.2
395,kapit,MY,1533896001,87.66,64,12,2.59,2.02,112.94
396,tarumovka,RU,1533896244,67.14,86,100,6.29,44.07,46.54
397,basco,US,1533893700,68.04,83,1,2.71,40.33,-91.2
398,dandong,CN,1533896244,88.38,55,0,6.29,40.12,124.37
399,aljezur,PT,1533896244,67.23,86,0,15.46,37.31,-8.8
400,cidreira,BR,1533895972,44.73,97,64,22.62,-30.17,-50.22
401,amarante do maranhao,BR,1533896002,71.19,90,12,5.73,-5.57,-46.74
402,ocos,GT,1533894360,73.4,100,75,3.38,14.51,-92.19
403,khvalynsk,RU,1533896245,68.58,62,8,11.65,52.5,48.11
404,ulaanbaatar,MN,1533895200,69.8,60,40,11.18,47.92,106.92
405,olafsvik,,,,,,,,
406,saint-francois,FR,1533895200,69.8,56,75,3.36,46.42,3.91
407,hunza,,,,,,,,
408,usinsk,RU,1533896245,59.31,98,92,12.66,66,57.56
409,namatanai,PG,1533896004,80.91,100,64,13.11,-3.66,152.44
410,megion,RU,1533893400,55.4,93,90,8.95,61.04,76.11
411,matara,PE,1533896246,33.3,100,88,1.92,-13.74,-72.9
412,saint-pierre,FR,1533895200,68.99,56,20,11.41,48.95,4.24
413,antibes,FR,1533895200,83.05,54,0,5.82,43.58,7.11
414,katherine,AU,1533895200,73.4,40,0,2.71,-14.47,132.26
415,inuvik,CA,1533891600,39.2,80,90,3.36,68.36,-133.71
416,idaho falls,US,1533891180,56.43,66,1,8.05,43.49,-112.04
417,horsham,AU,1533896247,56.25,61,92,12.44,-36.71,142.2
418,kununurra,AU,1533895200,69.8,35,0,2.37,-15.77,128.74
419,bonthe,SL,1533896247,77.76,90,36,3.94,7.53,-12.5
420,mercedes,UY,1533896052,37.89,98,0,7.07,-33.25,-58.03
421,gobabis,NA,1533895975,46.71,50,0,16.24,-22.45,18.97
422,romitan,UZ,1533893400,104,12,0,16.11,39.93,64.38
423,valdivia,CL,1533891600,46.4,100,90,1.12,-39.81,-73.25
424,vermilion,CA,1533895200,62.6,77,1,3.36,53.35,-110.85
425,zheleznodorozhnyy,RU,1533893400,78.35,36,0,8.95,55.75,38
426,mango,IT,1533894600,80.65,65,0,4.7,44.69,8.15
427,rizomata,GR,1533894600,83.53,47,40,2.59,40.35,22.21
428,galle,US,1533894960,78.8,83,75,5.82,29.74,-97.91
429,shubarkuduk,KZ,1533896249,70.92,42,48,13.67,49.15,56.49
430,gornopravdinsk,RU,1533896249,62.19,75,44,7.52,60.06,69.92
431,krasnoslobodsk,RU,1533896249,72.36,71,20,8.3,54.42,43.79
432,floro,NO,1533894600,54.12,93,75,10.29,61.6,5.03
433,maragogi,BR,1533896249,69.66,94,80,5.06,-9.01,-35.22
434,linjiang,CN,1533896023,75.69,58,0,6.17,41.81,126.91
435,bull savanna,JM,1533896250,65.7,84,0,2.93,17.89,-77.59
436,geraldton,CA,1533891600,55.4,100,5,3.36,49.72,-86.95
437,jinxiang,CN,1533896250,92.34,77,8,6.62,35.07,116.31
438,abonnema,NG,1533895200,78.8,88,75,5.82,4.71,6.79
439,muros,ES,1533895200,66.2,63,20,5.82,42.77,-9.06
440,sandwick,GB,1533894600,54.46,76,40,3.36,54.57,-2.89
441,priyutnoye,RU,1533893400,77,22,0,15.66,46.1,43.51
442,novobirilyussy,RU,1533896251,79.56,54,0,4.27,56.95,90.69
443,clarence town,AU,1533895200,59,67,12,8.05,-32.59,151.78
444,seoul,KR,1533893400,91.85,62,0,8.05,37.57,126.98
445,huarmey,PE,1533896001,51.75,90,0,2.15,-10.07,-78.15
446,bontang,ID,1533896252,84.15,88,80,5.17,0.12,117.47
447,mogadishu,SO,1533891600,84.2,70,40,16.11,2.04,45.34
448,qurayyat,,,,,,,,
449,puerto penasco,MX,1533896028,84.69,99,76,6.17,31.32,-113.53
450,tubmanburg,LR,1533896252,74.61,100,80,4.27,6.87,-10.82
451,san quintin,PH,1533891600,77,100,90,4.7,17.54,120.52
452,marzuq,YE,1533895967,94.77,21,24,3.94,14.4,46.47
453,damghan,IR,1533896252,94.41,31,0,2.15,36.17,54.34
454,alice springs,AU,1533895200,69.8,10,0,8.05,-23.7,133.88
455,kyrylivka,UA,1533896253,81.18,31,0,10.65,47.65,37.3
456,masunga,BW,1533891600,77,38,0,13.87,-20.62,27.45
457,waingapu,ID,1533896253,75.15,89,88,5.5,-9.65,120.26
458,sao felix do xingu,BR,1533896253,74.07,83,0,1.92,-6.64,-51.99
459,minsk,BY,1533893400,77,41,0,13.42,53.9,27.56
460,dilla,ET,1533896254,64.35,100,56,3.71,6.41,38.31
461,belaya gora,RU,1533896254,56.7,50,0,14.23,68.54,146.19
462,noumea,NC,1533895200,64.4,82,0,4.7,-22.28,166.46
463,saint-georges,CA,1533896254,55.71,91,0,5.73,46.12,-70.67
464,tuatapere,NZ,1533896057,43.74,100,0,2.93,-46.13,167.69
465,suoyarvi,RU,1533896255,81.18,56,0,7.18,62.08,32.35
466,sechura,PE,1533896029,62.28,100,64,9.64,-5.56,-80.82
467,kegayli,,,,,,,,
468,mkushi,ZM,1533896255,78.48,24,0,10.98,-13.61,29.4
469,pareora,NZ,1533896255,36.09,100,0,3.83,-44.49,171.21
470,sapa,PH,1533891600,84.2,94,90,12.75,14.32,120.76
471,rawson,AR,1533896256,45.36,55,92,17.81,-43.3,-65.11
472,gogrial,,,,,,,,
473,burkhala,,,,,,,,
474,meulaboh,ID,1533896021,83.07,100,20,5.95,4.14,96.13
475,alofi,NU,1533895200,57.2,100,0,9.19,-19.06,-169.92
476,fort-shevchenko,KZ,1533896041,75.51,88,88,19.6,44.51,50.26
477,lima,PE,1533896107,52.56,78,12,2.15,-12.06,-77.04
478,fairbanks,US,1533895080,45.73,87,75,7.63,64.84,-147.72
479,esil,KZ,1533896257,75.69,55,0,10.98,51.96,66.41
480,legnica,PL,1533895200,64.4,88,40,6.93,51.21,16.17
481,dalinghe,,,,,,,,
482,banda aceh,ID,1533896257,85.77,63,48,8.75,5.56,95.32
483,atocha,EC,1533891600,48.2,93,90,20.8,-1.22,-78.6
484,petropavlovka,RU,1533896023,64.08,68,100,6.85,50.61,105.32
485,cabedelo,BR,1533895962,77.58,89,0,12.33,-6.97,-34.84
486,baruun-urt,MN,1533896020,71.19,57,92,11.65,46.68,113.28
487,hit,IQ,1533896258,106.38,18,0,13.56,33.64,42.83
488,oga,NG,1533896258,78.66,97,36,9.31,8.18,5.65
489,chifeng,CN,1533896258,78.12,77,64,3.49,42.27,118.96
490,taoudenni,ML,1533896258,98.91,22,0,3.94,22.68,-3.98
491,faanui,PF,1533895978,81.18,96,88,11.88,-16.48,-151.75
492,kozhva,RU,1533896259,60.39,99,92,12.44,65.11,57.05
493,kafar qasem,,,,,,,,
494,kanniyakumari,IN,1533896259,79.47,100,80,23.29,8.08,77.57
495,carnduff,CA,1533896259,61.38,73,0,3.94,49.17,-101.8
496,hami,CN,1533896006,96.66,33,24,7.07,42.84,93.51
497,calabozo,VE,1533896259,71.46,91,32,2.37,8.92,-67.43
498,hays,US,1533891360,67.5,88,1,6.93,38.88,-99.33
499,great bend,US,1533891360,66.85,88,1,2.59,38.36,-98.78
500,shenzhen,CN,1533895200,82.58,88,40,13.87,22.54,114.05
501,shimanovsk,RU,1533896260,73.89,48,0,6.73,52,127.67
502,luganville,VU,1533895200,80.6,61,75,13.87,-15.51,167.18
503,general roca,AR,1533891600,37.4,78,0,3.36,-39.03,-67.58
504,robertsport,LR,1533896261,77.49,100,76,8.08,6.75,-11.37
505,sibu,MY,1533891600,93.2,56,75,6.93,2.29,111.83
506,moskovskiy,RU,1533893400,78.37,41,0,11.18,55.6,37.35
507,sorland,NO,1533894600,60.8,72,40,6.93,67.67,12.69
508,naryshkino,RU,1533896262,76.05,60,8,4.61,52.97,35.72
509,ankazoabo,MG,1533896262,84.42,36,0,9.64,-22.29,44.51
510,alirajpur,IN,1533896262,84.15,78,48,12.77,22.3,74.35
511,bansi,IN,1533896112,92.61,72,68,3.94,27.18,82.93
512,pavlovsk,RU,1533893400,86,23,0,6.71,53.31,82.99
513,general pico,AR,1533896262,31.68,87,0,7.74,-35.66,-63.75
514,abapo,BO,1533896263,46.71,68,0,1.36,-18.83,-63.47
515,vaitupu,,,,,,,,
516,rocha,UY,1533896013,47.52,91,92,17.47,-34.48,-54.34
517,roald,NO,1533894600,55.92,93,75,11.41,62.58,6.12
518,comodoro rivadavia,AR,1533891600,50,89,0,8.05,-45.87,-67.48
519,black river,JM,1533896263,78.48,98,0,3.94,18.03,-77.85
520,tevriz,RU,1533896263,65.61,95,92,3.38,57.51,72.4
521,beisfjord,NO,1533891000,62.6,63,75,1.7,68.38,17.6
522,tautira,PF,1533895200,77,88,75,8.05,-17.73,-149.15
523,jumla,NP,1533896264,54.72,100,44,0.69,29.28,82.18
524,monmouth,GB,1533894960,57.22,87,75,5.82,51.81,-2.72
525,galgani,,,,,,,,
526,nyurba,RU,1533896264,63.27,57,44,6.06,63.29,118.35
527,kostomuksha,RU,1533896265,75.24,45,0,4.16,64.59,30.6
528,sur,OM,1533895970,83.61,90,80,4.94,22.57,59.53
529,marki,PL,1533895200,87.8,48,0,11.41,52.33,21.11
530,wentzville,US,1533894660,69.24,88,75,5.82,38.81,-90.85
531,katsiveli,,,,,,,,
532,alta floresta,BR,1533896265,74.34,86,56,2.59,-9.87,-56.08
533,kavaratti,IN,1533896265,83.34,95,68,18.7,10.57,72.64
534,foz,ES,1533896265,65.61,100,0,7.4,43.57,-7.26
535,gweta,BW,1533896266,79.02,25,0,9.08,-20.21,25.26
536,samarinda,ID,1533896266,83.79,74,92,2.93,-0.5,117.14
537,matamoros,US,1533894780,79.36,88,1,5.82,25.87,-97.51
538,tete,MZ,1533896266,76.68,67,0,4.94,-16.16,33.59
539,carnarvon,ZA,1533895949,42.93,57,0,13.22,-30.97,22.13
540,shurob,TJ,1533896266,96.66,21,0,7.4,40.05,70.55
541,mecca,SA,1533895967,102.24,34,8,5.17,21.43,39.83
542,tarsus,TR,1533894600,96.8,34,20,8.05,36.92,34.88
543,payo,ID,1533896267,86.31,65,20,4.61,-3.75,103.64
544,marsa matruh,EG,1533895200,86,66,0,9.17,31.35,27.25
545,ismailia,EG,1533891600,91.4,52,0,3.36,30.6,32.27
546,swan hill,AU,1533896267,58.05,64,32,15.79,-35.34,143.56
547,del rio,US,1533894960,81.48,69,1,8.05,29.36,-100.9
548,mandalgovi,MN,1533896268,69.03,94,20,9.75,45.76,106.27
549,aflu,,,,,,,,
550,karabuk,TR,1533894600,84.2,54,75,10.29,41.2,32.63
551,liusha,CN,1533896268,85.77,63,0,5.95,27.21,108.59
552,santa isabel,CO,1533896269,57.06,90,8,2.59,4.71,-75.1
553,maningrida,AU,1533896269,79.92,71,0,12.55,-12.05,134.23
554,port macquarie,AU,1533895200,59,72,0,5.82,-31.43,152.91
555,turje,SI,1533895200,84.15,45,0,1.12,46.13,15.15
556,ntungamo,UG,1533896269,77.49,75,0,1.25,-0.87,30.27
557,chegutu,ZW,1533896269,79.83,34,0,13.56,-18.13,30.15
558,hobyo,SO,1533896270,82.89,67,24,21.61,5.35,48.53
559,bulgan,MN,1533895970,65.43,78,68,7.63,48.81,103.53
560,evensk,RU,1533896270,57.42,85,20,8.52,61.92,159.24
561,kalmunai,LK,1533895981,79.92,94,44,1.36,7.42,81.82
562,pithoro,PK,1533896270,98.28,51,8,10.2,25.52,69.38
563,glenwood springs,US,1533894960,57.6,58,1,1.92,39.55,-107.33
564,avera,US,1533894900,70.88,100,1,5.73,33.19,-82.53
565,beyneu,KZ,1533896271,72.63,51,100,4.61,45.32,55.19
566,tecpan,GT,1533891600,66.2,88,40,13.87,14.76,-90.99
567,solnechnyy,RU,1533896271,69.12,83,92,2.71,50.72,136.64
568,yulara,AU,1533895200,59,38,0,14.99,-25.24,130.99
569,leshukonskoye,RU,1533896271,71.82,57,88,12.55,64.9,45.76
570,lamu,ID,1533896271,80.28,83,68,2.71,0.57,122.3
571,marsh harbour,BS,1533895859,82.08,100,0,4.05,26.54,-77.06
572,tucuman,PE,1533896272,46.71,63,0,2.15,-17.17,-70.89
573,silver city,US,1533894900,64.4,63,75,8.05,32.77,-108.28
574,santa rosalia,IT,1533894900,86.18,66,0,13.87,38.07,13.27
575,aasiaat,GL,1533896272,42.75,96,0,15.01,68.71,-52.87
576,wattegama,LK,1533896273,71.73,100,92,5.73,7.35,80.68
577,kadykchan,,,,,,,,
578,ancud,CL,1533896273,46.35,99,92,3.15,-41.87,-73.83
579,innisfail,CA,1533895200,57.2,71,75,3.36,52.02,-113.95
580,nikolayevsk-na-amure,RU,1533896273,64.62,82,56,9.19,53.14,140.72
581,sefton,GB,1533894600,60.35,63,75,12.75,53.5,-2.97
582,marcona,,,,,,,,
583,lewistown,US,1533893700,67.69,93,1,5.82,40.39,-90.15
584,meadow lake,CA,1533896274,62.55,82,0,3.27,54.13,-108.44
585,mitsamiouli,KM,1533891600,87.8,40,20,13.87,-11.38,43.28
586,mandera,ET,1533896274,82.71,50,80,10.76,3.94,41.86
587,karaul,,,,,,,,
588,kokologo,BF,1533895200,84.2,74,40,4.7,12.19,-1.88
589,ilulissat,GL,1533894600,39.2,86,20,3.27,69.22,-51.1
590,palmares do sul,BR,1533891600,48.2,81,90,16.11,-30.26,-50.51
591,sao miguel do araguaia,BR,1533896275,69.21,86,20,6.4,-13.28,-50.16
592,muana,BR,1533896123,77.58,100,64,8.63,-1.53,-49.22
593,klaksvik,FO,1533894600,51.8,87,0,13.87,62.23,-6.59
594,juneau,US,1533894960,53.6,100,90,6.93,58.3,-134.42
595,eldikan,,,,,,,,
596,haibowan,,,,,,,,
597,fandriana,MG,1533896276,66.96,62,0,5.73,-20.24,47.38
598,verkhniye tatyshly,RU,1533896087,65.88,72,8,12.1,56.29,55.86
599,finschhafen,PG,1533896276,73.08,88,88,2.48,-6.6,147.85
600,puerto narino,CO,1533891600,71.6,100,75,2.24,-3.77,-70.38
601,ambilobe,MG,1533896001,84.24,44,0,19.15,-13.19,49.05
602,khakhea,BW,1533896276,57.15,24,0,18.03,-24.69,23.5
603,cozumel,,,,,,,,
604,drumnadrochit,GB,1533894600,58.69,76,20,5.82,57.34,-4.48
605,bengkulu,,,,,,,,
606,grindavik,IS,1533893400,50,71,90,10.29,63.84,-22.43
607,hefei,CN,1533891600,95,56,0,6.71,31.82,117.22
608,shizuishan,CN,1533896277,66.51,100,44,1.36,39.02,106.36
609,anchorage,US,1533894960,55.4,71,20,6.93,61.22,-149.89
610,nortelandia,BR,1533896277,58.41,85,0,4.94,-14.45,-56.8
611,honiara,SB,1533895200,77,100,20,3.36,-9.43,159.96
612,kuusamo,FI,1533894600,69.8,46,0,5.82,65.96,29.19
613,mutsamudu,,,,,,,,
614,burns lake,CA,1533896278,60.39,50,36,5.73,54.23,-125.76
615,whitehorse,CA,1533891600,48.2,87,90,3.36,60.72,-135.06
616,benguela,AO,1533895951,69.12,96,36,3.83,-12.58,13.4
617,bayeux,FR,1533895200,65.25,52,75,17.22,49.28,-0.7
618,berdigestyakh,RU,1533896279,58.05,85,92,7.74,62.1,126.7
619,ipira,BR,1533896279,43.74,100,80,12.44,-27.41,-51.77
620,bilibino,RU,1533895962,48.42,51,0,3.94,68.06,166.44
621,fernie,CA,1533895200,69.8,37,20,8.05,49.5,-115.06
622,krivogastani,,,,,,,,
623,fort abbas,PK,1533896279,93.24,93,8,5.73,29.19,72.85
624,monduli,TZ,1533891600,75.2,53,75,7.63,-3.3,36.45
625,panalingaan,PH,1533896280,84.06,80,20,11.54,8.78,117.42
626,blagoyevo,RU,1533896280,73.26,57,44,14.23,63.37,47.92
627,abeche,TD,1533896280,87.21,72,0,6.62,13.83,20.83
628,celestun,MX,1533896280,82.08,100,64,17.02,20.87,-90.4
629,amapa,HN,1533895200,77,100,20,1.36,15.09,-87.97
630,bubaque,GW,1533895200,78.8,88,40,3.36,11.28,-15.83
631,sakakah,,,,,,,,
